%  GPST                      x-ecef(m)      y-ecef(m)      z-ecef(m)   Q  ns   sdx(m)   sdy(m)   sdz(m)  sdxy(m)  sdyz(m)  sdzx(m) age(s)  ratio  sigma QINS    vn(m/s)    ve(m/s)    vu(m/s)      sdvn     sdve     sdvu    sdvne    sdveu    sdvun  roll(deg) pitch(deg)   yaw(deg)     sdroll    sdpitch      sdyaw bax(m/s^2) bay(m/s^2) baz(m/s^2) bgx(rad/s) bgy(rad/s) bgz(rad/s)
2019/03/28 03:17:33.000  -2408694.4740   4698106.4500   3566698.3650   7   0   0.0000   0.0000   0.0000   0.0000   0.0000   0.0000   0.00    0.0   0.00    5    0.00100    0.00700   -0.00000   0.00000  0.00000  0.00000  0.00000  0.00000  0.00000   0.158687   0.774913 289.964980   0.000000   0.000000   0.000000   0.077472  -0.062445  -0.020016  -0.000107   0.016309  -0.004433
2019/03/28 03:17:33.500  -2408694.4740   4698106.4500   3566698.3650   7   0   0.0000   0.0000   0.0000   0.0000   0.0000   0.0000   0.00    0.0   0.00    5    0.00000    0.00700    0.00000   0.00000  0.00000  0.00000  0.00000  0.00000  0.00000   0.159030   0.774114 289.964633   0.000000   0.000000   0.000000   0.077472  -0.062445  -0.020016  -0.000107   0.016309  -0.004433
2019/03/28 03:17:34.000  -2408694.4740   4698106.4500   3566698.3650   7   0   0.0000   0.0000   0.0000   0.0000   0.0000   0.0000   0.00    0.0   0.00    5    0.00100    0.00600   -0.00000   0.00000  0.00000  0.00000  0.00000  0.00000  0.00000   0.158638   0.773790 289.964222   0.000000   0.000000   0.000000   0.077472  -0.062445  -0.020016  -0.000107   0.016309  -0.004433
2019/03/28 03:17:34.500  -2408694.4740   4698106.4500   3566698.3650   7   0   0.0000   0.0000   0.0000   0.0000   0.0000   0.0000   0.00    0.0   0.00    5    0.00100    0.00500    0.00000   0.00000  0.00000  0.00000  0.00000  0.00000  0.00000   0.158205   0.773748 289.963880   0.000000   0.000000   0.000000   0.077472  -0.062445  -0.020016  -0.000107   0.016309  -0.004433
2019/03/28 03:17:35.000  -2408694.4740   4698106.4500   3566698.3650   7   0   0.0000   0.0000   0.0000   0.0000   0.0000   0.0000   0.00    0.0   0.00    5   -0.00100    0.00400    0.00000   0.00000  0.00000  0.00000  0.00000  0.00000  0.00000   0.158241   0.773264 289.963268   0.000000   0.000000   0.000000   0.077471  -0.062444  -0.020015  -0.000107   0.016309  -0.004433
2019/03/28 03:17:35.500  -2408694.4740   4698106.4500   3566698.3650   7   0   0.0000   0.0000   0.0000   0.0000   0.0000   0.0000   0.00    0.0   0.00    5   -0.00100    0.00300    0.00100   0.00000  0.00000  0.00000  0.00000  0.00000  0.00000   0.158089   0.772912 289.963161   0.000000   0.000000   0.000000   0.077471  -0.062444  -0.020015  -0.000107   0.016309  -0.004433
2019/03/28 03:17:36.000  -2408694.4740   4698106.4500   3566698.3650   7   0   0.0000   0.0000   0.0000   0.0000   0.0000   0.0000   0.00    0.0   0.00    5   -0.00100    0.00200   -0.00000   0.00000  0.00000  0.00000  0.00000  0.00000  0.00000   0.157787   0.772523 289.963267   0.000000   0.000000   0.000000   0.077471  -0.062444  -0.020015  -0.000107   0.016309  -0.004433
2019/03/28 03:17:36.500  -2408694.4740   4698106.4500   3566698.3650   7   0   0.0000   0.0000   0.0000   0.0000   0.0000   0.0000   0.00    0.0   0.00    5   -0.00200    0.00200   -0.00000   0.00000  0.00000  0.00000  0.00000  0.00000  0.00000   0.157335   0.772090 289.962898   0.000000   0.000000   0.000000   0.077471  -0.062444  -0.020015  -0.000107   0.016309  -0.004433
2019/03/28 03:17:37.000  -2408694.4740   4698106.4500   3566698.3650   7   0   0.0000   0.0000   0.0000   0.0000   0.0000   0.0000   0.00    0.0   0.00    5   -0.00100    0.00200   -0.00000   0.00000  0.00000  0.00000  0.00000  0.00000  0.00000   0.157140   0.772012 289.962574   0.000000   0.000000   0.000000   0.077470  -0.062444  -0.020013  -0.000107   0.016309  -0.004433
2019/03/28 03:17:37.500  -2408694.4740   4698106.4500   3566698.3650   7   0   0.0000   0.0000   0.0000   0.0000   0.0000   0.0000   0.00    0.0   0.00    5   -0.00000    0.00200    0.00000   0.00000  0.00000  0.00000  0.00000  0.00000  0.00000   0.156815   0.771702 289.962158   0.000000   0.000000   0.000000   0.077470  -0.062444  -0.020013  -0.000107   0.016309  -0.004433
2019/03/28 03:17:38.000  -2408694.4740   4698106.4500   3566698.3650   7   0   0.0000   0.0000   0.0000   0.0000   0.0000   0.0000   0.00    0.0   0.00    5    0.00000    0.00100    0.00000   0.00000  0.00000  0.00000  0.00000  0.00000  0.00000   0.157099   0.771376 289.962006   0.000000   0.000000   0.000000   0.077469  -0.062443  -0.020010  -0.000107   0.016309  -0.004433
2019/03/28 03:17:38.500  -2408694.4740   4698106.4500   3566698.3650   7   0   0.0000   0.0000   0.0000   0.0000   0.0000   0.0000   0.00    0.0   0.00    5    0.00000    0.00100    0.00000   0.00000  0.00000  0.00000  0.00000  0.00000  0.00000   0.157021   0.770951 289.961703   0.000000   0.000000   0.000000   0.077469  -0.062443  -0.020010  -0.000107   0.016309  -0.004433
2019/03/28 03:17:39.000  -2408694.4740   4698106.4500   3566698.3650   7   0   0.0000   0.0000   0.0000   0.0000   0.0000   0.0000   0.00    0.0   0.00    5    0.00000   -0.00000    0.00100   0.00000  0.00000  0.00000  0.00000  0.00000  0.00000   0.156624   0.770881 289.961103   0.000000   0.000000   0.000000   0.077468  -0.062443  -0.020006  -0.000107   0.016309  -0.004433
2019/03/28 03:17:39.500  -2408694.4740   4698106.4500   3566698.3650   7   0   0.0000   0.0000   0.0000   0.0000   0.0000   0.0000   0.00    0.0   0.00    5    0.00000    0.00000   -0.00000   0.00000  0.00000  0.00000  0.00000  0.00000  0.00000   0.156984   0.770766 289.960973   0.000000   0.000000   0.000000   0.077468  -0.062443  -0.020006  -0.000107   0.016309  -0.004433
2019/03/28 03:17:40.000  -2408694.4740   4698106.4500   3566698.3650   7   0   0.0000   0.0000   0.0000   0.0000   0.0000   0.0000   0.00    0.0   0.00    5   -0.00000   -0.00000   -0.00100   0.00000  0.00000  0.00000  0.00000  0.00000  0.00000   0.156752   0.770628 289.960700   0.000000   0.000000   0.000000   0.077467  -0.062442  -0.020000  -0.000107   0.016309  -0.004433
2019/03/28 03:17:40.500  -2408694.4740   4698106.4500   3566698.3650   7   0   0.0000   0.0000   0.0000   0.0000   0.0000   0.0000   0.00    0.0   0.00    5   -0.00100   -0.00000   -0.00000   0.00000  0.00000  0.00000  0.00000  0.00000  0.00000   0.156214   0.770423 289.960245   0.000000   0.000000   0.000000   0.077467  -0.062442  -0.020000  -0.000107   0.016309  -0.004433
2019/03/28 03:17:41.000  -2408694.4740   4698106.4500   3566698.3650   7   0   0.0000   0.0000   0.0000   0.0000   0.0000   0.0000   0.00    0.0   0.00    5   -0.00100    0.00100   -0.00000   0.00000  0.00000  0.00000  0.00000  0.00000  0.00000   0.155880   0.770210 289.960083   0.000000   0.000000   0.000000   0.077465  -0.062442  -0.019992  -0.000107   0.016309  -0.004433
2019/03/28 03:17:41.500  -2408694.4740   4698106.4500   3566698.3650   7   0   0.0000   0.0000   0.0000   0.0000   0.0000   0.0000   0.00    0.0   0.00    5   -0.00100   -0.00000    0.00000   0.00000  0.00000  0.00000  0.00000  0.00000  0.00000   0.155517   0.770079 289.959526   0.000000   0.000000   0.000000   0.077465  -0.062442  -0.019992  -0.000107   0.016309  -0.004433
2019/03/28 03:17:42.000  -2408694.4740   4698106.4500   3566698.3650   7   0   0.0000   0.0000   0.0000   0.0000   0.0000   0.0000   0.00    0.0   0.00    5   -0.00000   -0.00100   -0.00100   0.00000  0.00000  0.00000  0.00000  0.00000  0.00000   0.155314   0.769850 289.959236   0.000000   0.000000   0.000000   0.077464  -0.062441  -0.019982  -0.000107   0.016309  -0.004433
2019/03/28 03:17:42.500  -2408694.4740   4698106.4500   3566698.3650   7   0   0.0000   0.0000   0.0000   0.0000   0.0000   0.0000   0.00    0.0   0.00    5   -0.00000   -0.00100    0.00000   0.00000  0.00000  0.00000  0.00000  0.00000  0.00000   0.154979   0.769674 289.959065   0.000000   0.000000   0.000000   0.077464  -0.062441  -0.019982  -0.000107   0.016309  -0.004433
2019/03/28 03:17:43.000  -2408694.4740   4698106.4500   3566698.3650   7   0   0.0000   0.0000   0.0000   0.0000   0.0000   0.0000   0.00    0.0   0.00    5   -0.00000   -0.00100    0.00100   0.00000  0.00000  0.00000  0.00000  0.00000  0.00000   0.155076   0.769508 289.958643   0.000000   0.000000   0.000000   0.077463  -0.062440  -0.019968  -0.000107   0.016309  -0.004433
2019/03/28 03:17:43.500  -2408694.4740   4698106.4500   3566698.3650   7   0   0.0000   0.0000   0.0000   0.0000   0.0000   0.0000   0.00    0.0   0.00    5    0.00000    0.00000    0.00000   0.00000  0.00000  0.00000  0.00000  0.00000  0.00000   0.154872   0.769347 289.958240   0.000000   0.000000   0.000000   0.077463  -0.062440  -0.019968  -0.000107   0.016309  -0.004433
2019/03/28 03:17:44.000  -2408694.4740   4698106.4500   3566698.3650   7   0   0.0000   0.0000   0.0000   0.0000   0.0000   0.0000   0.00    0.0   0.00    5    0.00000    0.00100   -0.00100   0.00000  0.00000  0.00000  0.00000  0.00000  0.00000   0.154629   0.768834 289.957796   0.000000   0.000000   0.000000   0.077461  -0.062438  -0.019952  -0.000107   0.016309  -0.004433
2019/03/28 03:17:44.500  -2408694.4740   4698106.4500   3566698.3650   7   0   0.0000   0.0000   0.0000   0.0000   0.0000   0.0000   0.00    0.0   0.00    5    0.00000    0.00000   -0.00100   0.00000  0.00000  0.00000  0.00000  0.00000  0.00000   0.154613   0.768549 289.957246   0.000000   0.000000   0.000000   0.077461  -0.062438  -0.019952  -0.000107   0.016309  -0.004433
2019/03/28 03:17:45.000  -2408694.4740   4698106.4500   3566698.3650   7   0   0.0000   0.0000   0.0000   0.0000   0.0000   0.0000   0.00    0.0   0.00    5    0.00100    0.00000   -0.00100   0.00000  0.00000  0.00000  0.00000  0.00000  0.00000   0.154487   0.768332 289.956879   0.000000   0.000000   0.000000   0.077460  -0.062437  -0.019932  -0.000107   0.016309  -0.004433
2019/03/28 03:17:45.500  -2408694.4740   4698106.4500   3566698.3650   7   0   0.0000   0.0000   0.0000   0.0000   0.0000   0.0000   0.00    0.0   0.00    5   -0.00000    0.00000   -0.00000   0.00000  0.00000  0.00000  0.00000  0.00000  0.00000   0.154452   0.768064 289.956356   0.000000   0.000000   0.000000   0.077460  -0.062437  -0.019932  -0.000107   0.016309  -0.004433
2019/03/28 03:17:46.000  -2408694.4740   4698106.4500   3566698.3650   7   0   0.0000   0.0000   0.0000   0.0000   0.0000   0.0000   0.00    0.0   0.00    5    0.00000    0.00100   -0.00100   0.00000  0.00000  0.00000  0.00000  0.00000  0.00000   0.154244   0.768236 289.956168   0.000000   0.000000   0.000000   0.077460  -0.062434  -0.019909  -0.000107   0.016309  -0.004433
2019/03/28 03:17:46.500  -2408694.4740   4698106.4500   3566698.3650   7   0   0.0000   0.0000   0.0000   0.0000   0.0000   0.0000   0.00    0.0   0.00    5    0.00000    0.00000   -0.00100   0.00000  0.00000  0.00000  0.00000  0.00000  0.00000   0.154335   0.768096 289.955969   0.000000   0.000000   0.000000   0.077460  -0.062434  -0.019909  -0.000107   0.016309  -0.004433
2019/03/28 03:17:47.000  -2408694.4740   4698106.4500   3566698.3650   7   0   0.0000   0.0000   0.0000   0.0000   0.0000   0.0000   0.00    0.0   0.00    5    0.00000   -0.00000   -0.00200   0.00000  0.00000  0.00000  0.00000  0.00000  0.00000   0.153982   0.768138 289.955599   0.000000   0.000000   0.000000   0.077459  -0.062432  -0.019882  -0.000107   0.016309  -0.004433
2019/03/28 03:17:47.500  -2408694.4740   4698106.4500   3566698.3650   7   0   0.0000   0.0000   0.0000   0.0000   0.0000   0.0000   0.00    0.0   0.00    5   -0.00000   -0.00000   -0.00200   0.00000  0.00000  0.00000  0.00000  0.00000  0.00000   0.153856   0.768287 289.955263   0.000000   0.000000   0.000000   0.077459  -0.062432  -0.019882  -0.000107   0.016309  -0.004433
2019/03/28 03:17:48.000  -2408694.4740   4698106.4500   3566698.3650   7   0   0.0000   0.0000   0.0000   0.0000   0.0000   0.0000   0.00    0.0   0.00    5   -0.00100   -0.00000   -0.00100   0.00000  0.00000  0.00000  0.00000  0.00000  0.00000   0.153836   0.768280 289.954806   0.000000   0.000000   0.000000   0.077459  -0.062428  -0.019851  -0.000107   0.016309  -0.004433
2019/03/28 03:17:48.500  -2408694.4740   4698106.4500   3566698.3650   7   0   0.0000   0.0000   0.0000   0.0000   0.0000   0.0000   0.00    0.0   0.00    5   -0.00100   -0.00000   -0.00000   0.00000  0.00000  0.00000  0.00000  0.00000  0.00000   0.153664   0.768479 289.954559   0.000000   0.000000   0.000000   0.077459  -0.062428  -0.019851  -0.000107   0.016309  -0.004433
2019/03/28 03:17:49.000  -2408694.4740   4698106.4500   3566698.3650   7   0   0.0000   0.0000   0.0000   0.0000   0.0000   0.0000   0.00    0.0   0.00    5   -0.00000   -0.00100    0.00000   0.00000  0.00000  0.00000  0.00000  0.00000  0.00000   0.153741   0.768809 289.954332   0.000000   0.000000   0.000000   0.077459  -0.062425  -0.019816  -0.000107   0.016309  -0.004433
2019/03/28 03:17:49.500  -2408694.4740   4698106.4500   3566698.3650   7   0   0.0000   0.0000   0.0000   0.0000   0.0000   0.0000   0.00    0.0   0.00    5   -0.00100   -0.00100   -0.00000   0.00000  0.00000  0.00000  0.00000  0.00000  0.00000   0.153663   0.768784 289.953969   0.000000   0.000000   0.000000   0.077459  -0.062425  -0.019816  -0.000107   0.016309  -0.004433
2019/03/28 03:17:50.000  -2408694.4740   4698106.4500   3566698.3650   7   0   0.0000   0.0000   0.0000   0.0000   0.0000   0.0000   0.00    0.0   0.00    5   -0.00100   -0.00200    0.00000   0.00000  0.00000  0.00000  0.00000  0.00000  0.00000   0.153345   0.768748 289.953551   0.000000   0.000000   0.000000   0.077459  -0.062421  -0.019779  -0.000107   0.016309  -0.004433
2019/03/28 03:17:50.500  -2408694.4740   4698106.4500   3566698.3650   7   0   0.0000   0.0000   0.0000   0.0000   0.0000   0.0000   0.00    0.0   0.00    5   -0.00000   -0.00200    0.00000   0.00000  0.00000  0.00000  0.00000  0.00000  0.00000   0.152941   0.768702 289.953391   0.000000   0.000000   0.000000   0.077459  -0.062421  -0.019779  -0.000107   0.016309  -0.004433
2019/03/28 03:17:51.000  -2408694.4740   4698106.4500   3566698.3650   7   0   0.0000   0.0000   0.0000   0.0000   0.0000   0.0000   0.00    0.0   0.00    5    0.00000   -0.00200    0.00000   0.00000  0.00000  0.00000  0.00000  0.00000  0.00000   0.152900   0.768785 289.953263   0.000000   0.000000   0.000000   0.077459  -0.062418  -0.019738  -0.000107   0.016309  -0.004433
2019/03/28 03:17:51.500  -2408694.4740   4698106.4500   3566698.3650   7   0   0.0000   0.0000   0.0000   0.0000   0.0000   0.0000   0.00    0.0   0.00    5    0.00000   -0.00100   -0.00000   0.00000  0.00000  0.00000  0.00000  0.00000  0.00000   0.152671   0.768798 289.953120   0.000000   0.000000   0.000000   0.077459  -0.062418  -0.019738  -0.000107   0.016309  -0.004433
2019/03/28 03:17:52.000  -2408694.4740   4698106.4500   3566698.3650   7   0   0.0000   0.0000   0.0000   0.0000   0.0000   0.0000   0.00    0.0   0.00    5    0.00100   -0.00100   -0.00200   0.00000  0.00000  0.00000  0.00000  0.00000  0.00000   0.149885   0.771165 289.952263   0.000000   0.000000   0.000000   0.077459  -0.062416  -0.019694  -0.000107   0.016309  -0.004433
2019/03/28 03:17:52.500  -2408694.4740   4698106.4500   3566698.3650   7   0   0.0000   0.0000   0.0000   0.0000   0.0000   0.0000   0.00    0.0   0.00    5    0.00100    0.00000   -0.00100   0.00000  0.00000  0.00000  0.00000  0.00000  0.00000   0.146109   0.775948 289.951798   0.000000   0.000000   0.000000   0.077459  -0.062416  -0.019694  -0.000107   0.016309  -0.004433
2019/03/28 03:17:53.000  -2408694.4740   4698106.4500   3566698.3650   7   0   0.0000   0.0000   0.0000   0.0000   0.0000   0.0000   0.00    0.0   0.00    5   -0.00000    0.00100   -0.00000   0.00000  0.00000  0.00000  0.00000  0.00000  0.00000   0.144397   0.774957 289.950270   0.000000   0.000000   0.000000   0.077460  -0.062414  -0.019648  -0.000107   0.016309  -0.004433
2019/03/28 03:17:53.500  -2408694.4740   4698106.4500   3566698.3650   7   0   0.0000   0.0000   0.0000   0.0000   0.0000   0.0000   0.00    0.0   0.00    5    0.00000    0.00100   -0.00100   0.00000  0.00000  0.00000  0.00000  0.00000  0.00000   0.142870   0.777055 289.950655   0.000000   0.000000   0.000000   0.077460  -0.062414  -0.019648  -0.000107   0.016309  -0.004433
2019/03/28 03:17:54.000  -2408694.4740   4698106.4500   3566698.3650   7   0   0.0000   0.0000   0.0000   0.0000   0.0000   0.0000   0.00    0.0   0.00    5    0.00000    0.00100    0.00000   0.00000  0.00000  0.00000  0.00000  0.00000  0.00000   0.140403   0.778186 289.948580   0.000000   0.000000   0.000000   0.077462  -0.062413  -0.019600  -0.000107   0.016309  -0.004433
2019/03/28 03:17:54.500  -2408694.4740   4698106.4500   3566698.3650   7   0   0.0000   0.0000   0.0000   0.0000   0.0000   0.0000   0.00    0.0   0.00    5    0.00100    0.00000   -0.00000   0.00000  0.00000  0.00000  0.00000  0.00000  0.00000   0.138185   0.780924 289.949661   0.000000   0.000000   0.000000   0.077462  -0.062413  -0.019600  -0.000107   0.016309  -0.004433
2019/03/28 03:17:55.000  -2408694.4740   4698106.4500   3566698.3650   7   0   0.0000   0.0000   0.0000   0.0000   0.0000   0.0000   0.00    0.0   0.00    5    0.00100    0.00100    0.00100   0.00000  0.00000  0.00000  0.00000  0.00000  0.00000   0.137111   0.782321 289.948448   0.000000   0.000000   0.000000   0.077463  -0.062412  -0.019550  -0.000107   0.016309  -0.004433
2019/03/28 03:17:55.500  -2408694.4740   4698106.4500   3566698.3650   7   0   0.0000   0.0000   0.0000   0.0000   0.0000   0.0000   0.00    0.0   0.00    5    0.00100    0.00200   -0.00100   0.00000  0.00000  0.00000  0.00000  0.00000  0.00000   0.139274   0.777327 289.947507   0.000000   0.000000   0.000000   0.077463  -0.062412  -0.019550  -0.000107   0.016309  -0.004433
2019/03/28 03:17:56.000  -2408694.4740   4698106.4500   3566698.3650   7   0   0.0000   0.0000   0.0000   0.0000   0.0000   0.0000   0.00    0.0   0.00    5    0.00000    0.00200   -0.00200   0.00000  0.00000  0.00000  0.00000  0.00000  0.00000   0.148655   0.767172 289.950705   0.000000   0.000000   0.000000   0.077464  -0.062412  -0.019499  -0.000107   0.016309  -0.004433
2019/03/28 03:17:56.500  -2408694.4740   4698106.4500   3566698.3650   7   0   0.0000   0.0000   0.0000   0.0000   0.0000   0.0000   0.00    0.0   0.00    5   -0.00100    0.00100   -0.00200   0.00000  0.00000  0.00000  0.00000  0.00000  0.00000   0.147877   0.766911 289.949932   0.000000   0.000000   0.000000   0.077464  -0.062412  -0.019499  -0.000107   0.016309  -0.004433
2019/03/28 03:17:57.000  -2408694.4740   4698106.4500   3566698.3650   7   0   0.0000   0.0000   0.0000   0.0000   0.0000   0.0000   0.00    0.0   0.00    5    0.00600    0.00200   -0.00200   0.00000  0.00000  0.00000  0.00000  0.00000  0.00000   0.104186   0.809785 289.942657   0.000000   0.000000   0.000000   0.077466  -0.062411  -0.019448  -0.000107   0.016309  -0.004433
2019/03/28 03:17:57.500  -2408694.4740   4698106.4500   3566698.3650   7   0   0.0000   0.0000   0.0000   0.0000   0.0000   0.0000   0.00    0.0   0.00    5    0.01600    0.00200    0.00500   0.00000  0.00000  0.00000  0.00000  0.00000  0.00000   0.084032   0.817873 289.941276   0.000000   0.000000   0.000000   0.077466  -0.062411  -0.019448  -0.000107   0.016309  -0.004433
2019/03/28 03:17:58.000  -2408694.4740   4698106.4500   3566698.3650   7   0   0.0000   0.0000   0.0000   0.0000   0.0000   0.0000   0.00    0.0   0.00    5   -0.01000   -0.00400   -0.00500   0.00000  0.00000  0.00000  0.00000  0.00000  0.00000   0.090456   0.814991 289.945652   0.000000   0.000000   0.000000   0.077466  -0.062410  -0.019396  -0.000107   0.016309  -0.004433
2019/03/28 03:17:58.500  -2408694.4740   4698106.4500   3566698.3650   7   0   0.0000   0.0000   0.0000   0.0000   0.0000   0.0000   0.00    0.0   0.00    5    0.01200    0.00200    0.00500   0.00000  0.00000  0.00000  0.00000  0.00000  0.00000   0.096945   0.809328 289.938261   0.000000   0.000000   0.000000   0.077466  -0.062410  -0.019396  -0.000107   0.016309  -0.004433
2019/03/28 03:17:59.000  -2408694.4740   4698106.4500   3566698.3650   7   0   0.0000   0.0000   0.0000   0.0000   0.0000   0.0000   0.00    0.0   0.00    5   -0.00900   -0.00400   -0.00300   0.00000  0.00000  0.00000  0.00000  0.00000  0.00000   0.115543   0.792704 289.943491   0.000000   0.000000   0.000000   0.077466  -0.062407  -0.019345  -0.000107   0.016309  -0.004433
2019/03/28 03:17:59.500  -2408694.4740   4698106.4500   3566698.3650   7   0   0.0000   0.0000   0.0000   0.0000   0.0000   0.0000   0.00    0.0   0.00    5   -0.00400   -0.00400    0.00200   0.00000  0.00000  0.00000  0.00000  0.00000  0.00000   0.135596   0.774517 289.946141   0.000000   0.000000   0.000000   0.077466  -0.062407  -0.019345  -0.000107   0.016309  -0.004433
2019/03/28 03:18:00.000  -2408694.4740   4698106.4500   3566698.3650   7   0   0.0000   0.0000   0.0000   0.0000   0.0000   0.0000   0.00    0.0   0.00    5   -0.00000   -0.00100   -0.00200   0.00000  0.00000  0.00000  0.00000  0.00000  0.00000   0.135866   0.776376 289.944661   0.000000   0.000000   0.000000   0.077465  -0.062404  -0.019295  -0.000107   0.016309  -0.004433
2019/03/28 03:18:00.500  -2408694.4740   4698106.4500   3566698.3650   7   0   0.0000   0.0000   0.0000   0.0000   0.0000   0.0000   0.00    0.0   0.00    5   -0.00200   -0.00300    0.00100   0.00000  0.00000  0.00000  0.00000  0.00000  0.00000   0.143416   0.775485 289.944930   0.000000   0.000000   0.000000   0.077465  -0.062404  -0.019295  -0.000107   0.016309  -0.004433
2019/03/28 03:18:01.000  -2408694.4740   4698106.4500   3566698.3650   7   0   0.0000   0.0000   0.0000   0.0000   0.0000   0.0000   0.00    0.0   0.00    5   -0.00100   -0.00300    0.00000   0.00000  0.00000  0.00000  0.00000  0.00000  0.00000   0.143514   0.769218 289.948537   0.000000   0.000000   0.000000   0.077463  -0.062400  -0.019247  -0.000107   0.016309  -0.004433
2019/03/28 03:18:01.500  -2408694.4740   4698106.4500   3566698.3650   7   0   0.0000   0.0000   0.0000   0.0000   0.0000   0.0000   0.00    0.0   0.00    5    0.00000   -0.00200    0.00000   0.00000  0.00000  0.00000  0.00000  0.00000  0.00000   0.144428   0.767840 289.947804   0.000000   0.000000   0.000000   0.077463  -0.062400  -0.019247  -0.000107   0.016309  -0.004433
2019/03/28 03:18:02.000  -2408694.4740   4698106.4500   3566698.3650   7   0   0.0000   0.0000   0.0000   0.0000   0.0000   0.0000   0.00    0.0   0.00    5   -0.00000   -0.00300    0.00000   0.00000  0.00000  0.00000  0.00000  0.00000  0.00000   0.145871   0.768017 289.947413   0.000000   0.000000   0.000000   0.077461  -0.062397  -0.019200  -0.000107   0.016309  -0.004433
2019/03/28 03:18:02.500  -2408694.4740   4698106.4500   3566698.3650   7   0   0.0000   0.0000   0.0000   0.0000   0.0000   0.0000   0.00    0.0   0.00    5   -0.00000   -0.00200   -0.00200   0.00000  0.00000  0.00000  0.00000  0.00000  0.00000   0.123330   0.786173 289.942984   0.000000   0.000000   0.000000   0.077461  -0.062397  -0.019200  -0.000107   0.016309  -0.004433
2019/03/28 03:18:03.000  -2408694.4740   4698106.4500   3566698.3650   7   0   0.0000   0.0000   0.0000   0.0000   0.0000   0.0000   0.00    0.0   0.00    5   -0.00100   -0.00200   -0.00100   0.00000  0.00000  0.00000  0.00000  0.00000  0.00000   0.118971   0.791729 289.941988   0.000000   0.000000   0.000000   0.077460  -0.062393  -0.019157  -0.000107   0.016309  -0.004433
2019/03/28 03:18:03.500  -2408694.4740   4698106.4500   3566698.3650   7   0   0.0000   0.0000   0.0000   0.0000   0.0000   0.0000   0.00    0.0   0.00    5   -0.00000   -0.00100   -0.00100   0.00000  0.00000  0.00000  0.00000  0.00000  0.00000   0.114544   0.793257 289.939933   0.000000   0.000000   0.000000   0.077460  -0.062393  -0.019157  -0.000107   0.016309  -0.004433
2019/03/28 03:18:04.000  -2408694.4740   4698106.4500   3566698.3650   7   0   0.0000   0.0000   0.0000   0.0000   0.0000   0.0000   0.00    0.0   0.00    5   -0.00000   -0.00100   -0.00100   0.00000  0.00000  0.00000  0.00000  0.00000  0.00000   0.113224   0.795185 289.939584   0.000000   0.000000   0.000000   0.077460  -0.062389  -0.019116  -0.000107   0.016309  -0.004433
2019/03/28 03:18:04.500  -2408694.4740   4698106.4500   3566698.3650   7   0   0.0000   0.0000   0.0000   0.0000   0.0000   0.0000   0.00    0.0   0.00    5    0.00100   -0.00100   -0.00100   0.00000  0.00000  0.00000  0.00000  0.00000  0.00000   0.110593   0.798079 289.937560   0.000000   0.000000   0.000000   0.077460  -0.062389  -0.019116  -0.000107   0.016309  -0.004433
2019/03/28 03:18:05.000  -2408694.4740   4698106.4500   3566698.3650   7   0   0.0000   0.0000   0.0000   0.0000   0.0000   0.0000   0.00    0.0   0.00    5    0.00100   -0.00000   -0.00100   0.00000  0.00000  0.00000  0.00000  0.00000  0.00000   0.106478   0.799503 289.936777   0.000000   0.000000   0.000000   0.077460  -0.062386  -0.019080  -0.000107   0.016309  -0.004433
2019/03/28 03:18:05.500  -2408694.4740   4698106.4500   3566698.3650   7   0   0.0000   0.0000   0.0000   0.0000   0.0000   0.0000   0.00    0.0   0.00    5    0.00000    0.00100   -0.00300   0.00000  0.00000  0.00000  0.00000  0.00000  0.00000   0.105317   0.801339 289.935039   0.000000   0.000000   0.000000   0.077460  -0.062386  -0.019080  -0.000107   0.016309  -0.004433
2019/03/28 03:18:06.000  -2408694.4740   4698106.4500   3566698.3650   7   0   0.0000   0.0000   0.0000   0.0000   0.0000   0.0000   0.00    0.0   0.00    5   -0.00000   -0.00000   -0.00200   0.00000  0.00000  0.00000  0.00000  0.00000  0.00000   0.107406   0.801604 289.935255   0.000000   0.000000   0.000000   0.077462  -0.062384  -0.019047  -0.000107   0.016309  -0.004433
2019/03/28 03:18:06.500  -2408694.4740   4698106.4500   3566698.3650   7   0   0.0000   0.0000   0.0000   0.0000   0.0000   0.0000   0.00    0.0   0.00    5   -0.00000   -0.00100   -0.00200   0.00000  0.00000  0.00000  0.00000  0.00000  0.00000   0.103428   0.803596 289.933714   0.000000   0.000000   0.000000   0.077462  -0.062384  -0.019047  -0.000107   0.016309  -0.004433
2019/03/28 03:18:07.000  -2408694.4740   4698106.4500   3566698.3650   7   0   0.0000   0.0000   0.0000   0.0000   0.0000   0.0000   0.00    0.0   0.00    5    0.00000   -0.00000   -0.00300   0.00000  0.00000  0.00000  0.00000  0.00000  0.00000   0.102259   0.804841 289.933491   0.000000   0.000000   0.000000   0.077465  -0.062383  -0.019019  -0.000107   0.016309  -0.004433
2019/03/28 03:18:07.500  -2408694.4740   4698106.4500   3566698.3650   7   0   0.0000   0.0000   0.0000   0.0000   0.0000   0.0000   0.00    0.0   0.00    5    0.00000   -0.00000   -0.00200   0.00000  0.00000  0.00000  0.00000  0.00000  0.00000   0.100515   0.804235 289.933583   0.000000   0.000000   0.000000   0.077465  -0.062383  -0.019019  -0.000107   0.016309  -0.004433
2019/03/28 03:18:08.000  -2408694.4740   4698106.4500   3566698.3650   7   0   0.0000   0.0000   0.0000   0.0000   0.0000   0.0000   0.00    0.0   0.00    5    0.00100    0.00100   -0.00200   0.00000  0.00000  0.00000  0.00000  0.00000  0.00000   0.096945   0.804959 289.932786   0.000000   0.000000   0.000000   0.077468  -0.062381  -0.018995  -0.000107   0.016309  -0.004433
2019/03/28 03:18:08.500  -2408694.4740   4698106.4500   3566698.3650   7   0   0.0000   0.0000   0.0000   0.0000   0.0000   0.0000   0.00    0.0   0.00    5    0.00000    0.00000   -0.00100   0.00000  0.00000  0.00000  0.00000  0.00000  0.00000   0.097823   0.805083 289.932778   0.000000   0.000000   0.000000   0.077468  -0.062381  -0.018995  -0.000107   0.016309  -0.004433
2019/03/28 03:18:09.000  -2408694.4740   4698106.4500   3566698.3650   7   0   0.0000   0.0000   0.0000   0.0000   0.0000   0.0000   0.00    0.0   0.00    5   -0.00100    0.00100    0.00100   0.00000  0.00000  0.00000  0.00000  0.00000  0.00000   0.095523   0.805374 289.932420   0.000000   0.000000   0.000000   0.077471  -0.062381  -0.018976  -0.000107   0.016309  -0.004433
2019/03/28 03:18:09.500  -2408694.4740   4698106.4500   3566698.3650   7   0   0.0000   0.0000   0.0000   0.0000   0.0000   0.0000   0.00    0.0   0.00    5   -0.00100    0.00100    0.00200   0.00000  0.00000  0.00000  0.00000  0.00000  0.00000   0.094446   0.804400 289.932452   0.000000   0.000000   0.000000   0.077471  -0.062381  -0.018976  -0.000107   0.016309  -0.004433
2019/03/28 03:18:10.000  -2408694.4740   4698106.4500   3566698.3650   7   0   0.0000   0.0000   0.0000   0.0000   0.0000   0.0000   0.00    0.0   0.00    5   -0.00100    0.00100    0.00200   0.00000  0.00000  0.00000  0.00000  0.00000  0.00000   0.094680   0.802986 289.931331   0.000000   0.000000   0.000000   0.077475  -0.062380  -0.018962  -0.000107   0.016309  -0.004433
2019/03/28 03:18:10.500  -2408694.4740   4698106.4500   3566698.3650   7   0   0.0000   0.0000   0.0000   0.0000   0.0000   0.0000   0.00    0.0   0.00    5   -0.00200    0.00100    0.00200   0.00000  0.00000  0.00000  0.00000  0.00000  0.00000   0.093081   0.802912 289.932207   0.000000   0.000000   0.000000   0.077475  -0.062380  -0.018962  -0.000107   0.016309  -0.004433
2019/03/28 03:18:11.000  -2408694.4740   4698106.4500   3566698.3650   7   0   0.0000   0.0000   0.0000   0.0000   0.0000   0.0000   0.00    0.0   0.00    5   -0.00200    0.00200    0.00200   0.00000  0.00000  0.00000  0.00000  0.00000  0.00000   0.092766   0.803184 289.930834   0.000000   0.000000   0.000000   0.077479  -0.062380  -0.018951  -0.000107   0.016309  -0.004433
2019/03/28 03:18:11.500  -2408694.4740   4698106.4500   3566698.3650   7   0   0.0000   0.0000   0.0000   0.0000   0.0000   0.0000   0.00    0.0   0.00    5   -0.00100    0.00300    0.00200   0.00000  0.00000  0.00000  0.00000  0.00000  0.00000   0.091988   0.802918 289.930645   0.000000   0.000000   0.000000   0.077479  -0.062380  -0.018951  -0.000107   0.016309  -0.004433
2019/03/28 03:18:12.000  -2408694.4740   4698106.4500   3566698.3650   7   0   0.0000   0.0000   0.0000   0.0000   0.0000   0.0000   0.00    0.0   0.00    5   -0.00200    0.00300    0.00100   0.00000  0.00000  0.00000  0.00000  0.00000  0.00000   0.090955   0.802159 289.930220   0.000000   0.000000   0.000000   0.077482  -0.062379  -0.018943  -0.000107   0.016309  -0.004433
2019/03/28 03:18:12.500  -2408694.4740   4698106.4500   3566698.3650   7   0   0.0000   0.0000   0.0000   0.0000   0.0000   0.0000   0.00    0.0   0.00    5   -0.00100    0.00200    0.00300   0.00000  0.00000  0.00000  0.00000  0.00000  0.00000   0.094088   0.801684 289.930062   0.000000   0.000000   0.000000   0.077482  -0.062379  -0.018943  -0.000107   0.016309  -0.004433
2019/03/28 03:18:13.000  -2408694.4740   4698106.4500   3566698.3650   7   0   0.0000   0.0000   0.0000   0.0000   0.0000   0.0000   0.00    0.0   0.00    5   -0.00000    0.00100    0.00000   0.00000  0.00000  0.00000  0.00000  0.00000  0.00000   0.089169   0.801556 289.929706   0.000000   0.000000   0.000000   0.077485  -0.062378  -0.018939  -0.000107   0.016309  -0.004433
2019/03/28 03:18:13.500  -2408694.4740   4698106.4500   3566698.3650   7   0   0.0000   0.0000   0.0000   0.0000   0.0000   0.0000   0.00    0.0   0.00    5    0.00100    0.00200    0.00100   0.00000  0.00000  0.00000  0.00000  0.00000  0.00000   0.089617   0.801671 289.928351   0.000000   0.000000   0.000000   0.077485  -0.062378  -0.018939  -0.000107   0.016309  -0.004433
2019/03/28 03:18:14.000  -2408694.4740   4698106.4500   3566698.3650   7   0   0.0000   0.0000   0.0000   0.0000   0.0000   0.0000   0.00    0.0   0.00    5   -0.00100    0.00200    0.00100   0.00000  0.00000  0.00000  0.00000  0.00000  0.00000   0.094270   0.797985 289.929964   0.000000   0.000000   0.000000   0.077488  -0.062376  -0.018936  -0.000107   0.016309  -0.004433
2019/03/28 03:18:14.500  -2408694.4740   4698106.4500   3566698.3650   7   0   0.0000   0.0000   0.0000   0.0000   0.0000   0.0000   0.00    0.0   0.00    5   -0.00000    0.00200    0.00000   0.00000  0.00000  0.00000  0.00000  0.00000  0.00000   0.096178   0.795171 289.930269   0.000000   0.000000   0.000000   0.077488  -0.062376  -0.018936  -0.000107   0.016309  -0.004433
2019/03/28 03:18:15.000  -2408694.4740   4698106.4500   3566698.3650   7   0   0.0000   0.0000   0.0000   0.0000   0.0000   0.0000   0.00    0.0   0.00    5   -0.00200    0.00000   -0.00100   0.00000  0.00000  0.00000  0.00000  0.00000  0.00000   0.098506   0.794315 289.930233   0.000000   0.000000   0.000000   0.077490  -0.062374  -0.018934  -0.000107   0.016309  -0.004433
2019/03/28 03:18:15.500  -2408694.4740   4698106.4500   3566698.3650   7   0   0.0000   0.0000   0.0000   0.0000   0.0000   0.0000   0.00    0.0   0.00    5   -0.00200   -0.00100    0.00000   0.00000  0.00000  0.00000  0.00000  0.00000  0.00000   0.096348   0.797035 289.929636   0.000000   0.000000   0.000000   0.077490  -0.062374  -0.018934  -0.000107   0.016309  -0.004433
2019/03/28 03:18:16.000  -2408694.4740   4698106.4500   3566698.3650   7   0   0.0000   0.0000   0.0000   0.0000   0.0000   0.0000   0.00    0.0   0.00    5   -0.00200   -0.00000   -0.00100   0.00000  0.00000  0.00000  0.00000  0.00000  0.00000   0.097005   0.799118 289.929447   0.000000   0.000000   0.000000   0.077491  -0.062371  -0.018932  -0.000107   0.016309  -0.004433
2019/03/28 03:18:16.500  -2408694.4740   4698106.4500   3566698.3650   7   0   0.0000   0.0000   0.0000   0.0000   0.0000   0.0000   0.00    0.0   0.00    5   -0.00100   -0.00000   -0.00100   0.00000  0.00000  0.00000  0.00000  0.00000  0.00000   0.101412   0.799908 289.929153   0.000000   0.000000   0.000000   0.077491  -0.062371  -0.018932  -0.000107   0.016309  -0.004433
2019/03/28 03:18:17.000  -2408694.4740   4698106.4500   3566698.3650   7   0   0.0000   0.0000   0.0000   0.0000   0.0000   0.0000   0.00    0.0   0.00    5   -0.00100    0.00000   -0.00000   0.00000  0.00000  0.00000  0.00000  0.00000  0.00000   0.094552   0.803480 289.928449   0.000000   0.000000   0.000000   0.077491  -0.062366  -0.018930  -0.000107   0.016309  -0.004433
2019/03/28 03:18:17.500  -2408694.4740   4698106.4500   3566698.3650   7   0   0.0000   0.0000   0.0000   0.0000   0.0000   0.0000   0.00    0.0   0.00    5   -0.00100    0.00000   -0.00100   0.00000  0.00000  0.00000  0.00000  0.00000  0.00000   0.095876   0.804298 289.927833   0.000000   0.000000   0.000000   0.077491  -0.062366  -0.018930  -0.000107   0.016309  -0.004433
2019/03/28 03:18:18.000  -2408694.4740   4698106.4500   3566698.3650   7   0   0.0000   0.0000   0.0000   0.0000   0.0000   0.0000   0.00    0.0   0.00    5    0.00000    0.00000   -0.00100   0.00000  0.00000  0.00000  0.00000  0.00000  0.00000   0.093822   0.802953 289.927363   0.000000   0.000000   0.000000   0.077490  -0.062362  -0.018927  -0.000107   0.016309  -0.004433
2019/03/28 03:18:18.500  -2408694.4740   4698106.4500   3566698.3650   7   0   0.0000   0.0000   0.0000   0.0000   0.0000   0.0000   0.00    0.0   0.00    5   -0.00100    0.00000    0.00000   0.00000  0.00000  0.00000  0.00000  0.00000  0.00000   0.094464   0.808449 289.928692   0.000000   0.000000   0.000000   0.077490  -0.062362  -0.018927  -0.000107   0.016309  -0.004433
2019/03/28 03:18:19.000  -2408694.4740   4698106.4500   3566698.3650   7   0   0.0000   0.0000   0.0000   0.0000   0.0000   0.0000   0.00    0.0   0.00    5   -0.00000    0.00000    0.00100   0.00000  0.00000  0.00000  0.00000  0.00000  0.00000   0.093779   0.809993 289.929406   0.000000   0.000000   0.000000   0.077487  -0.062357  -0.018922  -0.000107   0.016309  -0.004433
2019/03/28 03:18:19.500  -2408694.4740   4698106.4500   3566698.3650   7   0   0.0000   0.0000   0.0000   0.0000   0.0000   0.0000   0.00    0.0   0.00    5   -0.00100   -0.00000   -0.00100   0.00000  0.00000  0.00000  0.00000  0.00000  0.00000   0.096434   0.810334 289.929083   0.000000   0.000000   0.000000   0.077487  -0.062357  -0.018922  -0.000107   0.016309  -0.004433
2019/03/28 03:18:20.000  -2408694.4740   4698106.4500   3566698.3650   7   0   0.0000   0.0000   0.0000   0.0000   0.0000   0.0000   0.00    0.0   0.00    5   -0.00100   -0.00100    0.00100   0.00000  0.00000  0.00000  0.00000  0.00000  0.00000   0.099757   0.808603 289.931313   0.000000   0.000000   0.000000   0.077483  -0.062352  -0.018914  -0.000107   0.016309  -0.004433
2019/03/28 03:18:20.500  -2408694.4740   4698106.4500   3566698.3650   7   0   0.0000   0.0000   0.0000   0.0000   0.0000   0.0000   0.00    0.0   0.00    5   -0.00100   -0.00100    0.00000   0.00000  0.00000  0.00000  0.00000  0.00000  0.00000   0.102688   0.807189 289.930816   0.000000   0.000000   0.000000   0.077483  -0.062352  -0.018914  -0.000107   0.016309  -0.004433
2019/03/28 03:18:21.000  -2408694.4740   4698106.4500   3566698.3650   7   0   0.0000   0.0000   0.0000   0.0000   0.0000   0.0000   0.00    0.0   0.00    5   -0.00100   -0.00100    0.00100   0.00000  0.00000  0.00000  0.00000  0.00000  0.00000   0.100966   0.810445 289.928378   0.000000   0.000000   0.000000   0.077478  -0.062347  -0.018904  -0.000107   0.016309  -0.004433
2019/03/28 03:18:21.500  -2408694.4740   4698106.4500   3566698.3650   7   0   0.0000   0.0000   0.0000   0.0000   0.0000   0.0000   0.00    0.0   0.00    5   -0.00100    0.00000    0.00100   0.00000  0.00000  0.00000  0.00000  0.00000  0.00000   0.100563   0.811722 289.929869   0.000000   0.000000   0.000000   0.077478  -0.062347  -0.018904  -0.000107   0.016309  -0.004433
2019/03/28 03:18:22.000  -2408694.4740   4698106.4500   3566698.3650   7   0   0.0000   0.0000   0.0000   0.0000   0.0000   0.0000   0.00    0.0   0.00    5   -0.00100    0.00200    0.00200   0.00000  0.00000  0.00000  0.00000  0.00000  0.00000   0.102853   0.810834 289.927100   0.000000   0.000000   0.000000   0.077472  -0.062342  -0.018890  -0.000107   0.016309  -0.004433
2019/03/28 03:18:22.500  -2408694.4740   4698106.4500   3566698.3650   7   0   0.0000   0.0000   0.0000   0.0000   0.0000   0.0000   0.00    0.0   0.00    5    0.00000    0.00100    0.00200   0.00000  0.00000  0.00000  0.00000  0.00000  0.00000   0.104076   0.813335 289.927622   0.000000   0.000000   0.000000   0.077472  -0.062342  -0.018890  -0.000107   0.016309  -0.004433
2019/03/28 03:18:23.000  -2408694.4740   4698106.4500   3566698.3650   7   0   0.0000   0.0000   0.0000   0.0000   0.0000   0.0000   0.00    0.0   0.00    5    0.00000    0.00100    0.00200   0.00000  0.00000  0.00000  0.00000  0.00000  0.00000   0.105786   0.813072 289.927969   0.000000   0.000000   0.000000   0.077466  -0.062338  -0.018873  -0.000107   0.016309  -0.004433
2019/03/28 03:18:23.500  -2408694.4740   4698106.4500   3566698.3650   7   0   0.0000   0.0000   0.0000   0.0000   0.0000   0.0000   0.00    0.0   0.00    5    0.00000    0.00300    0.00200   0.00000  0.00000  0.00000  0.00000  0.00000  0.00000   0.104654   0.813192 289.927184   0.000000   0.000000   0.000000   0.077466  -0.062338  -0.018873  -0.000107   0.016309  -0.004433
2019/03/28 03:18:24.000  -2408694.4740   4698106.4500   3566698.3650   7   0   0.0000   0.0000   0.0000   0.0000   0.0000   0.0000   0.00    0.0   0.00    5    0.00000    0.00200    0.00200   0.00000  0.00000  0.00000  0.00000  0.00000  0.00000   0.101098   0.813877 289.926277   0.000000   0.000000   0.000000   0.077458  -0.062334  -0.018850  -0.000107   0.016309  -0.004433
2019/03/28 03:18:24.500  -2408694.4740   4698106.4500   3566698.3650   7   0   0.0000   0.0000   0.0000   0.0000   0.0000   0.0000   0.00    0.0   0.00    5   -0.00100    0.00300    0.00300   0.00000  0.00000  0.00000  0.00000  0.00000  0.00000   0.098627   0.812613 289.924766   0.000000   0.000000   0.000000   0.077458  -0.062334  -0.018850  -0.000107   0.016309  -0.004433
2019/03/28 03:18:25.000  -2408694.4740   4698106.4500   3566698.3650   7   0   0.0000   0.0000   0.0000   0.0000   0.0000   0.0000   0.00    0.0   0.00    5   -0.00100    0.00200    0.00300   0.00000  0.00000  0.00000  0.00000  0.00000  0.00000   0.099835   0.810509 289.922342   0.000000   0.000000   0.000000   0.077451  -0.062330  -0.018823  -0.000107   0.016309  -0.004433
2019/03/28 03:18:25.500  -2408694.4740   4698106.4500   3566698.3650   7   0   0.0000   0.0000   0.0000   0.0000   0.0000   0.0000   0.00    0.0   0.00    5   -0.00100    0.00200    0.00200   0.00000  0.00000  0.00000  0.00000  0.00000  0.00000   0.099871   0.811281 289.923489   0.000000   0.000000   0.000000   0.077451  -0.062330  -0.018823  -0.000107   0.016309  -0.004433
2019/03/28 03:18:26.000  -2408694.4740   4698106.4500   3566698.3650   7   0   0.0000   0.0000   0.0000   0.0000   0.0000   0.0000   0.00    0.0   0.00    5   -0.00200    0.00000    0.00300   0.00000  0.00000  0.00000  0.00000  0.00000  0.00000   0.102379   0.811827 289.922489   0.000000   0.000000   0.000000   0.077444  -0.062326  -0.018790  -0.000107   0.016309  -0.004433
2019/03/28 03:18:26.500  -2408694.4740   4698106.4500   3566698.3650   7   0   0.0000   0.0000   0.0000   0.0000   0.0000   0.0000   0.00    0.0   0.00    5   -0.00200    0.00100    0.00300   0.00000  0.00000  0.00000  0.00000  0.00000  0.00000   0.109101   0.809124 289.921889   0.000000   0.000000   0.000000   0.077444  -0.062326  -0.018790  -0.000107   0.016309  -0.004433
2019/03/28 03:18:27.000  -2408694.4740   4698106.4500   3566698.3650   7   0   0.0000   0.0000   0.0000   0.0000   0.0000   0.0000   0.00    0.0   0.00    5   -0.00100    0.00200    0.00100   0.00000  0.00000  0.00000  0.00000  0.00000  0.00000   0.104825   0.816277 289.921143   0.000000   0.000000   0.000000   0.077438  -0.062321  -0.018752  -0.000107   0.016309  -0.004433
2019/03/28 03:18:27.500  -2408694.4740   4698106.4500   3566698.3650   7   0   0.0000   0.0000   0.0000   0.0000   0.0000   0.0000   0.00    0.0   0.00    5   -0.00100    0.00100    0.00400   0.00000  0.00000  0.00000  0.00000  0.00000  0.00000   0.097587   0.828565 289.922131   0.000000   0.000000   0.000000   0.077438  -0.062321  -0.018752  -0.000107   0.016309  -0.004433
2019/03/28 03:18:28.000  -2408694.4740   4698106.4500   3566698.3650   7   0   0.0000   0.0000   0.0000   0.0000   0.0000   0.0000   0.00    0.0   0.00    5   -0.00200    0.00200    0.00100   0.00000  0.00000  0.00000  0.00000  0.00000  0.00000   0.098980   0.833456 289.921905   0.000000   0.000000   0.000000   0.077432  -0.062316  -0.018707  -0.000107   0.016309  -0.004433
2019/03/28 03:18:28.500  -2408694.4740   4698106.4500   3566698.3650   7   0   0.0000   0.0000   0.0000   0.0000   0.0000   0.0000   0.00    0.0   0.00    5   -0.00100    0.00100    0.00100   0.00000  0.00000  0.00000  0.00000  0.00000  0.00000   0.101394   0.836129 289.922306   0.000000   0.000000   0.000000   0.077432  -0.062316  -0.018707  -0.000107   0.016309  -0.004433
2019/03/28 03:18:29.000  -2408694.4740   4698106.4500   3566698.3650   7   0   0.0000   0.0000   0.0000   0.0000   0.0000   0.0000   0.00    0.0   0.00    5   -0.00200    0.00200   -0.00100   0.00000  0.00000  0.00000  0.00000  0.00000  0.00000   0.103923   0.834937 289.920922   0.000000   0.000000   0.000000   0.077428  -0.062311  -0.018656  -0.000107   0.016309  -0.004433
2019/03/28 03:18:29.500  -2408694.4740   4698106.4500   3566698.3650   7   0   0.0000   0.0000   0.0000   0.0000   0.0000   0.0000   0.00    0.0   0.00    5   -0.00100    0.00100    0.00100   0.00000  0.00000  0.00000  0.00000  0.00000  0.00000   0.104114   0.826567 289.921797   0.000000   0.000000   0.000000   0.077428  -0.062311  -0.018656  -0.000107   0.016309  -0.004433
2019/03/28 03:18:30.000  -2408694.4740   4698106.4500   3566698.3650   7   0   0.0000   0.0000   0.0000   0.0000   0.0000   0.0000   0.00    0.0   0.00    5   -0.00100   -0.00000   -0.00100   0.00000  0.00000  0.00000  0.00000  0.00000  0.00000   0.106146   0.822122 289.921721   0.000000   0.000000   0.000000   0.077425  -0.062306  -0.018600  -0.000107   0.016309  -0.004433
2019/03/28 03:18:30.500  -2408694.4740   4698106.4500   3566698.3650   7   0   0.0000   0.0000   0.0000   0.0000   0.0000   0.0000   0.00    0.0   0.00    5   -0.00200   -0.00000   -0.00200   0.00000  0.00000  0.00000  0.00000  0.00000  0.00000   0.103928   0.824606 289.921008   0.000000   0.000000   0.000000   0.077425  -0.062306  -0.018600  -0.000107   0.016309  -0.004433
2019/03/28 03:18:31.000  -2408694.4740   4698106.4500   3566698.3650   7   0   0.0000   0.0000   0.0000   0.0000   0.0000   0.0000   0.00    0.0   0.00    5   -0.00100   -0.00100   -0.00100   0.00000  0.00000  0.00000  0.00000  0.00000  0.00000   0.100566   0.827276 289.922109   0.000000   0.000000   0.000000   0.077423  -0.062301  -0.018539  -0.000107   0.016309  -0.004433
2019/03/28 03:18:31.500  -2408694.4740   4698106.4500   3566698.3650   7   0   0.0000   0.0000   0.0000   0.0000   0.0000   0.0000   0.00    0.0   0.00    5    0.00000   -0.00100    0.00000   0.00000  0.00000  0.00000  0.00000  0.00000  0.00000   0.099292   0.828022 289.921376   0.000000   0.000000   0.000000   0.077423  -0.062301  -0.018539  -0.000107   0.016309  -0.004433
2019/03/28 03:18:32.000  -2408694.4740   4698106.4500   3566698.3650   7   0   0.0000   0.0000   0.0000   0.0000   0.0000   0.0000   0.00    0.0   0.00    5    0.00000   -0.00200   -0.00200   0.00000  0.00000  0.00000  0.00000  0.00000  0.00000   0.102103   0.827039 289.921109   0.000000   0.000000   0.000000   0.077422  -0.062297  -0.018474  -0.000107   0.016309  -0.004433
2019/03/28 03:18:32.500  -2408694.4740   4698106.4500   3566698.3650   7   0   0.0000   0.0000   0.0000   0.0000   0.0000   0.0000   0.00    0.0   0.00    5    0.00200   -0.00300   -0.00200   0.00000  0.00000  0.00000  0.00000  0.00000  0.00000   0.103208   0.826185 289.921247   0.000000   0.000000   0.000000   0.077422  -0.062297  -0.018474  -0.000107   0.016309  -0.004433
2019/03/28 03:18:33.000  -2408694.4740   4698106.4500   3566698.3650   7   0   0.0000   0.0000   0.0000   0.0000   0.0000   0.0000   0.00    0.0   0.00    5    0.00100   -0.00200   -0.00300   0.00000  0.00000  0.00000  0.00000  0.00000  0.00000   0.094678   0.830397 289.919899   0.000000   0.000000   0.000000   0.077422  -0.062293  -0.018404  -0.000107   0.016309  -0.004433
2019/03/28 03:18:33.500  -2408694.4740   4698106.4500   3566698.3650   7   0   0.0000   0.0000   0.0000   0.0000   0.0000   0.0000   0.00    0.0   0.00    5    0.00200   -0.00200   -0.00200   0.00000  0.00000  0.00000  0.00000  0.00000  0.00000   0.101841   0.828158 289.918583   0.000000   0.000000   0.000000   0.077422  -0.062293  -0.018404  -0.000107   0.016309  -0.004433
2019/03/28 03:18:34.000  -2408694.4740   4698106.4500   3566698.3650   7   0   0.0000   0.0000   0.0000   0.0000   0.0000   0.0000   0.00    0.0   0.00    5    0.00200   -0.00200   -0.00200   0.00000  0.00000  0.00000  0.00000  0.00000  0.00000   0.102585   0.826939 289.919732   0.000000   0.000000   0.000000   0.077422  -0.062291  -0.018333  -0.000107   0.016309  -0.004433
2019/03/28 03:18:34.500  -2408694.4740   4698106.4500   3566698.3650   7   0   0.0000   0.0000   0.0000   0.0000   0.0000   0.0000   0.00    0.0   0.00    5    0.00300   -0.00200   -0.00000   0.00000  0.00000  0.00000  0.00000  0.00000  0.00000   0.100917   0.827169 289.918442   0.000000   0.000000   0.000000   0.077422  -0.062291  -0.018333  -0.000107   0.016309  -0.004433
2019/03/28 03:18:35.000  -2408694.4740   4698106.4500   3566698.3650   7   0   0.0000   0.0000   0.0000   0.0000   0.0000   0.0000   0.00    0.0   0.00    5    0.00300   -0.00200   -0.00000   0.00000  0.00000  0.00000  0.00000  0.00000  0.00000   0.099447   0.827986 289.917859   0.000000   0.000000   0.000000   0.077423  -0.062290  -0.018259  -0.000107   0.016309  -0.004433
2019/03/28 03:18:35.500  -2408694.4740   4698106.4500   3566698.3650   7   0   0.0000   0.0000   0.0000   0.0000   0.0000   0.0000   0.00    0.0   0.00    5    0.00200   -0.00200    0.00100   0.00000  0.00000  0.00000  0.00000  0.00000  0.00000   0.101659   0.824962 289.918062   0.000000   0.000000   0.000000   0.077423  -0.062290  -0.018259  -0.000107   0.016309  -0.004433
2019/03/28 03:18:36.000  -2408694.4740   4698106.4500   3566698.3650   7   0   0.0000   0.0000   0.0000   0.0000   0.0000   0.0000   0.00    0.0   0.00    5    0.00200   -0.00200   -0.00100   0.00000  0.00000  0.00000  0.00000  0.00000  0.00000   0.099728   0.825954 289.918140   0.000000   0.000000   0.000000   0.077424  -0.062289  -0.018185  -0.000107   0.016309  -0.004433
2019/03/28 03:18:36.500  -2408694.4740   4698106.4500   3566698.3650   7   0   0.0000   0.0000   0.0000   0.0000   0.0000   0.0000   0.00    0.0   0.00    5    0.00200   -0.00100   -0.00200   0.00000  0.00000  0.00000  0.00000  0.00000  0.00000   0.102687   0.823602 289.916965   0.000000   0.000000   0.000000   0.077424  -0.062289  -0.018185  -0.000107   0.016309  -0.004433
2019/03/28 03:18:37.000  -2408694.4740   4698106.4500   3566698.3650   7   0   0.0000   0.0000   0.0000   0.0000   0.0000   0.0000   0.00    0.0   0.00    5    0.00200   -0.00200   -0.00100   0.00000  0.00000  0.00000  0.00000  0.00000  0.00000   0.100870   0.824328 289.917733   0.000000   0.000000   0.000000   0.077426  -0.062289  -0.018111  -0.000107   0.016309  -0.004433
2019/03/28 03:18:37.500  -2408694.4740   4698106.4500   3566698.3650   7   0   0.0000   0.0000   0.0000   0.0000   0.0000   0.0000   0.00    0.0   0.00    5    0.00200   -0.00200   -0.00100   0.00000  0.00000  0.00000  0.00000  0.00000  0.00000   0.100495   0.824107 289.917397   0.000000   0.000000   0.000000   0.077426  -0.062289  -0.018111  -0.000107   0.016309  -0.004433
2019/03/28 03:18:38.000  -2408694.4740   4698106.4500   3566698.3650   7   0   0.0000   0.0000   0.0000   0.0000   0.0000   0.0000   0.00    0.0   0.00    5    0.00100   -0.00200   -0.00100   0.00000  0.00000  0.00000  0.00000  0.00000  0.00000   0.100190   0.824646 289.917512   0.000000   0.000000   0.000000   0.077427  -0.062289  -0.018038  -0.000107   0.016309  -0.004433
2019/03/28 03:18:38.500  -2408694.4740   4698106.4500   3566698.3650   7   0   0.0000   0.0000   0.0000   0.0000   0.0000   0.0000   0.00    0.0   0.00    5    0.00000   -0.00300   -0.00200   0.00000  0.00000  0.00000  0.00000  0.00000  0.00000   0.099632   0.824968 289.917544   0.000000   0.000000   0.000000   0.077427  -0.062289  -0.018038  -0.000107   0.016309  -0.004433
2019/03/28 03:18:39.000  -2408694.4740   4698106.4500   3566698.3650   7   0   0.0000   0.0000   0.0000   0.0000   0.0000   0.0000   0.00    0.0   0.00    5    0.00100   -0.00200   -0.00100   0.00000  0.00000  0.00000  0.00000  0.00000  0.00000   0.098108   0.824349 289.917550   0.000000   0.000000   0.000000   0.077428  -0.062289  -0.017967  -0.000107   0.016309  -0.004433
2019/03/28 03:18:39.500  -2408694.4740   4698106.4500   3566698.3650   7   0   0.0000   0.0000   0.0000   0.0000   0.0000   0.0000   0.00    0.0   0.00    5    0.00100   -0.00100   -0.00000   0.00000  0.00000  0.00000  0.00000  0.00000  0.00000   0.098992   0.823430 289.917361   0.000000   0.000000   0.000000   0.077428  -0.062289  -0.017967  -0.000107   0.016309  -0.004433
2019/03/28 03:18:40.000  -2408694.4740   4698106.4500   3566698.3650   7   0   0.0000   0.0000   0.0000   0.0000   0.0000   0.0000   0.00    0.0   0.00    5   -0.00000   -0.00100   -0.00000   0.00000  0.00000  0.00000  0.00000  0.00000  0.00000   0.098497   0.822996 289.916858   0.000000   0.000000   0.000000   0.077428  -0.062289  -0.017899  -0.000107   0.016309  -0.004433
2019/03/28 03:18:40.500  -2408694.4740   4698106.4500   3566698.3650   7   0   0.0000   0.0000   0.0000   0.0000   0.0000   0.0000   0.00    0.0   0.00    5   -0.00000    0.00000    0.00000   0.00000  0.00000  0.00000  0.00000  0.00000  0.00000   0.099290   0.822086 289.916345   0.000000   0.000000   0.000000   0.077428  -0.062289  -0.017899  -0.000107   0.016309  -0.004433
2019/03/28 03:18:41.000  -2408694.4740   4698106.4500   3566698.3650   7   0   0.0000   0.0000   0.0000   0.0000   0.0000   0.0000   0.00    0.0   0.00    5   -0.00000   -0.00000    0.00000   0.00000  0.00000  0.00000  0.00000  0.00000  0.00000   0.096544   0.821974 289.916965   0.000000   0.000000   0.000000   0.077429  -0.062289  -0.017834  -0.000107   0.016309  -0.004433
2019/03/28 03:18:41.500  -2408694.4740   4698106.4500   3566698.3650   7   0   0.0000   0.0000   0.0000   0.0000   0.0000   0.0000   0.00    0.0   0.00    5    0.00000   -0.00000    0.00000   0.00000  0.00000  0.00000  0.00000  0.00000  0.00000   0.098792   0.820472 289.916239   0.000000   0.000000   0.000000   0.077429  -0.062289  -0.017834  -0.000107   0.016309  -0.004433
2019/03/28 03:18:42.000  -2408694.4740   4698106.4500   3566698.3650   7   0   0.0000   0.0000   0.0000   0.0000   0.0000   0.0000   0.00    0.0   0.00    5    0.00000   -0.00000   -0.00100   0.00000  0.00000  0.00000  0.00000  0.00000  0.00000   0.099182   0.819826 289.916294   0.000000   0.000000   0.000000   0.077429  -0.062289  -0.017774  -0.000107   0.016309  -0.004433
2019/03/28 03:18:42.500  -2408694.4740   4698106.4500   3566698.3650   7   0   0.0000   0.0000   0.0000   0.0000   0.0000   0.0000   0.00    0.0   0.00    5    0.00200   -0.00000   -0.00000   0.00000  0.00000  0.00000  0.00000  0.00000  0.00000   0.098282   0.819390 289.918222   0.000000   0.000000   0.000000   0.077429  -0.062289  -0.017774  -0.000107   0.016309  -0.004433
2019/03/28 03:18:43.000  -2408694.4740   4698106.4500   3566698.3650   7   0   0.0000   0.0000   0.0000   0.0000   0.0000   0.0000   0.00    0.0   0.00    5    0.00000   -0.00000   -0.00000   0.00000  0.00000  0.00000  0.00000  0.00000  0.00000   0.100141   0.818334 289.915839   0.000000   0.000000   0.000000   0.077428  -0.062288  -0.017718  -0.000107   0.016309  -0.004433
2019/03/28 03:18:43.500  -2408694.4740   4698106.4500   3566698.3650   7   0   0.0000   0.0000   0.0000   0.0000   0.0000   0.0000   0.00    0.0   0.00    5    0.00200    0.00000   -0.00100   0.00000  0.00000  0.00000  0.00000  0.00000  0.00000   0.100540   0.817705 289.916528   0.000000   0.000000   0.000000   0.077428  -0.062288  -0.017718  -0.000107   0.016309  -0.004433
2019/03/28 03:18:44.000  -2408694.4740   4698106.4500   3566698.3650   7   0   0.0000   0.0000   0.0000   0.0000   0.0000   0.0000   0.00    0.0   0.00    5    0.00100   -0.00100   -0.00100   0.00000  0.00000  0.00000  0.00000  0.00000  0.00000   0.103759   0.820517 289.915510   0.000000   0.000000   0.000000   0.077427  -0.062288  -0.017667  -0.000107   0.016309  -0.004433
2019/03/28 03:18:44.500  -2408694.4740   4698106.4500   3566698.3650   7   0   0.0000   0.0000   0.0000   0.0000   0.0000   0.0000   0.00    0.0   0.00    5    0.00000   -0.00200   -0.00000   0.00000  0.00000  0.00000  0.00000  0.00000  0.00000   0.108459   0.819740 289.916104   0.000000   0.000000   0.000000   0.077427  -0.062288  -0.017667  -0.000107   0.016309  -0.004433
2019/03/28 03:18:45.000  -2408694.4740   4698106.4500   3566698.3650   7   0   0.0000   0.0000   0.0000   0.0000   0.0000   0.0000   0.00    0.0   0.00    5    0.00000   -0.00000   -0.00100   0.00000  0.00000  0.00000  0.00000  0.00000  0.00000   0.111875   0.818864 289.916785   0.000000   0.000000   0.000000   0.077426  -0.062286  -0.017622  -0.000107   0.016309  -0.004433
2019/03/28 03:18:45.500  -2408694.4740   4698106.4500   3566698.3650   7   0   0.0000   0.0000   0.0000   0.0000   0.0000   0.0000   0.00    0.0   0.00    5    0.00100   -0.00100    0.00100   0.00000  0.00000  0.00000  0.00000  0.00000  0.00000   0.107923   0.818337 289.917062   0.000000   0.000000   0.000000   0.077426  -0.062286  -0.017622  -0.000107   0.016309  -0.004433
2019/03/28 03:18:46.000  -2408694.4740   4698106.4500   3566698.3650   7   0   0.0000   0.0000   0.0000   0.0000   0.0000   0.0000   0.00    0.0   0.00    5   -0.00000    0.00000    0.00100   0.00000  0.00000  0.00000  0.00000  0.00000  0.00000   0.104297   0.819488 289.917033   0.000000   0.000000   0.000000   0.077424  -0.062284  -0.017583  -0.000107   0.016309  -0.004433
2019/03/28 03:18:46.500  -2408694.4740   4698106.4500   3566698.3650   7   0   0.0000   0.0000   0.0000   0.0000   0.0000   0.0000   0.00    0.0   0.00    5    0.00000   -0.00000    0.00100   0.00000  0.00000  0.00000  0.00000  0.00000  0.00000   0.105732   0.819473 289.916824   0.000000   0.000000   0.000000   0.077424  -0.062284  -0.017583  -0.000107   0.016309  -0.004433
2019/03/28 03:18:47.000  -2408694.4740   4698106.4500   3566698.3650   7   0   0.0000   0.0000   0.0000   0.0000   0.0000   0.0000   0.00    0.0   0.00    5   -0.00000    0.00100    0.00100   0.00000  0.00000  0.00000  0.00000  0.00000  0.00000   0.105266   0.819715 289.916215   0.000000   0.000000   0.000000   0.077423  -0.062282  -0.017550  -0.000107   0.016309  -0.004433
2019/03/28 03:18:47.500  -2408694.4740   4698106.4500   3566698.3650   7   0   0.0000   0.0000   0.0000   0.0000   0.0000   0.0000   0.00    0.0   0.00    5   -0.00200    0.00200    0.00200   0.00000  0.00000  0.00000  0.00000  0.00000  0.00000   0.104818   0.820791 289.915794   0.000000   0.000000   0.000000   0.077423  -0.062282  -0.017550  -0.000107   0.016309  -0.004433
2019/03/28 03:18:48.000  -2408694.4740   4698106.4500   3566698.3650   7   0   0.0000   0.0000   0.0000   0.0000   0.0000   0.0000   0.00    0.0   0.00    5   -0.00100    0.00200    0.00100   0.00000  0.00000  0.00000  0.00000  0.00000  0.00000   0.104219   0.820579 289.916128   0.000000   0.000000   0.000000   0.077421  -0.062279  -0.017524  -0.000107   0.016309  -0.004433
2019/03/28 03:18:48.500  -2408694.4740   4698106.4500   3566698.3650   7   0   0.0000   0.0000   0.0000   0.0000   0.0000   0.0000   0.00    0.0   0.00    5   -0.00000    0.00200    0.00100   0.00000  0.00000  0.00000  0.00000  0.00000  0.00000   0.103879   0.819924 289.916618   0.000000   0.000000   0.000000   0.077421  -0.062279  -0.017524  -0.000107   0.016309  -0.004433
2019/03/28 03:18:49.000  -2408694.4740   4698106.4500   3566698.3650   7   0   0.0000   0.0000   0.0000   0.0000   0.0000   0.0000   0.00    0.0   0.00    5   -0.00100    0.00200   -0.00000   0.00000  0.00000  0.00000  0.00000  0.00000  0.00000   0.104081   0.819339 289.916178   0.000000   0.000000   0.000000   0.077419  -0.062275  -0.017504  -0.000107   0.016309  -0.004433
2019/03/28 03:18:49.500  -2408694.4740   4698106.4500   3566698.3650   7   0   0.0000   0.0000   0.0000   0.0000   0.0000   0.0000   0.00    0.0   0.00    5   -0.00100    0.00200    0.00100   0.00000  0.00000  0.00000  0.00000  0.00000  0.00000   0.104818   0.819383 289.914902   0.000000   0.000000   0.000000   0.077419  -0.062275  -0.017504  -0.000107   0.016309  -0.004433
2019/03/28 03:18:50.000  -2408694.4740   4698106.4500   3566698.3650   7   0   0.0000   0.0000   0.0000   0.0000   0.0000   0.0000   0.00    0.0   0.00    5   -0.00100    0.00200   -0.00000   0.00000  0.00000  0.00000  0.00000  0.00000  0.00000   0.103740   0.820962 289.914799   0.000000   0.000000   0.000000   0.077417  -0.062271  -0.017490  -0.000107   0.016309  -0.004433
2019/03/28 03:18:50.500  -2408694.4740   4698106.4500   3566698.3650   7   0   0.0000   0.0000   0.0000   0.0000   0.0000   0.0000   0.00    0.0   0.00    5   -0.00200   -0.00000   -0.00100   0.00000  0.00000  0.00000  0.00000  0.00000  0.00000   0.103962   0.820947 289.915690   0.000000   0.000000   0.000000   0.077417  -0.062271  -0.017490  -0.000107   0.016309  -0.004433
2019/03/28 03:18:51.000  -2408694.4740   4698106.4500   3566698.3650   7   0   0.0000   0.0000   0.0000   0.0000   0.0000   0.0000   0.00    0.0   0.00    5   -0.00200    0.00000   -0.00100   0.00000  0.00000  0.00000  0.00000  0.00000  0.00000   0.103017   0.821624 289.915525   0.000000   0.000000   0.000000   0.077415  -0.062266  -0.017483  -0.000107   0.016309  -0.004433
2019/03/28 03:18:51.500  -2408694.4740   4698106.4500   3566698.3650   7   0   0.0000   0.0000   0.0000   0.0000   0.0000   0.0000   0.00    0.0   0.00    5   -0.00100    0.00100    0.00200   0.00000  0.00000  0.00000  0.00000  0.00000  0.00000   0.117381   0.811559 289.917222   0.000000   0.000000   0.000000   0.077415  -0.062266  -0.017483  -0.000107   0.016309  -0.004433
